[
  {
    "name": "Assassination of Archduke Franz Ferdinand",
    "date": "June 28, 1914",
    "location": "Sarajevo, Bosnia and Herzegovina",
    "coordinates": {
      "lat": 43.8563,
      "lng": 18.4131
    },
    "summary": "Archduke Franz Ferdinand of Austria was assassinated by Gavrilo Princip, triggering a chain of events that led to the outbreak of World War I."
  },
  {
    "name": "Austria-Hungary Declares War on Serbia",
    "date": "July 28, 1914",
    "location": "Vienna, Austria-Hungary",
    "coordinates": {
      "lat": 48.2082,
      "lng": 16.3738
    },
    "summary": "Austria-Hungary declared war on Serbia following the assassination of Archduke Franz Ferdinand, marking the official beginning of World War I."
  },
  {
    "name": "Germany Declares War on France",
    "date": "August 3, 1914",
    "location": "Berlin, Germany",
    "coordinates": {
      "lat": 52.5200,
      "lng": 13.4050
    },
    "summary": "Germany declared war on France as part of its broader war strategy, expanding the conflict into a major European war."
  },
  {
    "name": "United Kingdom Declares War on Germany",
    "date": "August 4, 1914",
    "location": "London, United Kingdom",
    "coordinates": {
      "lat": 51.5074,
      "lng": -0.1278
    },
    "summary": "The United Kingdom entered World War I after Germany invaded Belgium, escalating the conflict into a global war."
  },
  {
    "name": "Battle of the Marne",
    "date": "September 6, 1914",
    "location": "Marne, France",
    "coordinates": {
      "lat": 48.9510,
      "lng": 4.3650
    },
    "summary": "Allied forces halted the German advance toward Paris, marking a turning point in the early stages of World War I."
  },
  {
    "name": "Japan Declares War on Germany",
    "date": "August 23, 1914",
    "location": "Tokyo, Japan",
    "coordinates": {
      "lat": 35.6762,
      "lng": 139.6503
    },
    "summary": "Japan entered World War I on the side of the Allies, seeking to expand its influence in East Asia and the Pacific."
  },
  {
    "name": "Ottoman Empire Enters World War I",
    "date": "October 29, 1914",
    "location": "Constantinople, Ottoman Empire",
    "coordinates": {
      "lat": 41.0082,
      "lng": 28.9784
    },
    "summary": "The Ottoman Empire joined the Central Powers, opening new fronts in the Middle East and expanding the scope of World War I."
  },
  {
    "name": "First Battle of Ypres",
    "date": "October 19, 1914",
    "location": "Ypres, Belgium",
    "coordinates": {
      "lat": 50.8514,
      "lng": 2.8857
    },
    "summary": "One of the first major battles of World War I, it marked the end of mobile warfare on the Western Front and the beginning of trench warfare."
  },
  {
    "name": "Panama Canal Officially Opens",
    "date": "August 15, 1914",
    "location": "Panama City, Panama",
    "coordinates": {
      "lat": 8.9824,
      "lng": -79.5199
    },
    "summary": "The Panama Canal was officially opened, revolutionizing global maritime trade by connecting the Atlantic and Pacific Oceans."
  }
]